id,緯度,経度,ジャンル1,サブジャンル1,ジャンル2,サブジャンル2,名称,概要,郵便番号,住所,電話番号,Fax番号,E-mail,営業時間,定休日,料金,備考1,備考2,備考3,リンク
1,37.372928,137.234967,消防・防災,緊急一時避難場所,,,国道249号（松波鵜島ﾊﾞｲﾊﾟｽA）,,,珠洲市宝立町宗玄,,,,,,,標高:34.90m,想定津波高:6.8m,想定津波到達時間:16分,
2,37.373585,137.234784,消防・防災,緊急一時避難場所,,,国道249号（松波鵜島ﾊﾞｲﾊﾟｽB）,,,珠洲市宝立町宗玄,,,,,,,標高:31.00m,想定津波高:6.8m,想定津波到達時間:16分,
3,37.378231,137.233518,消防・防災,緊急一時避難場所,,,国道249号（松波鵜島ﾊﾞｲﾊﾟｽC）,,,珠洲市宝立町鵜島,,,,,,,標高:29.30m,想定津波高:6.8m,想定津波到達時間:16分,
4,37.380968,137.233926,消防・防災,緊急一時避難場所,,,国道249号（松波鵜島ﾊﾞｲﾊﾟｽD）,,,珠洲市宝立町鵜島,,,,,,,標高:30.30m,想定津波高:6.8m,想定津波到達時間:16分,
5,37.382809,137.233754,消防・防災,緊急一時避難場所,,,市道61号線（稲荷神社裏山）,,,珠洲市宝立町南黒丸,,,,,,,標高:53.90m,想定津波高:6.8m,想定津波到達時間:16分,
6,37.386788,137.231488,消防・防災,緊急一時避難場所,,,白山神社（南黒丸）,,,珠洲市宝立町南黒丸６－３５－１,,,,,,,標高:16.00m,想定津波高:6.8m,想定津波到達時間:16分,
7,37.38974,137.232628,消防・防災,緊急一時避難場所,,,農道宝立45号線（南黒丸）,,,珠洲市宝立町南黒丸,,,,,,,標高:16.40m,想定津波高:6.8m,想定津波到達時間:16分,
8,37.392792,137.234119,消防・防災,緊急一時避難場所,,,市道63号線（びや坂）,,,珠洲市宝立町柏原,,,,,,,標高:12.80m,想定津波高:7.8m,想定津波到達時間:16分,
9,37.395681,137.235653,消防・防災,緊急一時避難場所,,,たら山台地,,,珠洲市宝立町柏原,,,,,,,標高:28.20m,想定津波高:7.8m,想定津波到達時間:16分,
10,37.396942,137.237662,消防・防災,緊急一時避難場所,,,宝立小学校体育館,,927-1223,珠洲市宝立町鵜島４字３０番地,,,,,,,標高:18.00m,想定津波高:6.8m,想定津波到達時間:16分,
11,37.398918,137.226472,消防・防災,緊急一時避難場所,,,柏原集会所,,927-1228 ,珠洲市宝立町柏原,,,,,,,標高:13.40m,想定津波高:8.0m,想定津波到達時間:16分,
12,37.402517,137.225622,消防・防災,緊急一時避難場所,,,宝立米乾燥調製施設,,,珠洲市宝立町鵜飼,,,,,,,標高:37.10m,想定津波高:7.8m,想定津波到達時間:16分,
13,37.403237,137.237993,消防・防災,緊急一時避難場所,,,宝立小中学校（4階）,,927-1222,珠洲市宝立町鵜飼丑部８３番地,,,,,,,標高:16.20m,想定津波高:7.8m,想定津波到達時間:16分,
14,37.407094,137.231802,消防・防災,緊急一時避難場所,,,中野山道①,,,珠洲市宝立町春日野,,,,,,,標高:26.90m,想定津波高:8.0m,想定津波到達時間:16分,
15,37.408755,137.230697,消防・防災,緊急一時避難場所,,,中野山道②,,,珠洲市宝立町春日野,,,,,,,標高:22.80m,想定津波高:8.0m,想定津波到達時間:16分,
16,37.408393,137.233014,消防・防災,緊急一時避難場所,,,中野山道③,,,珠洲市宝立町春日野,,,,,,,標高:20.00m,想定津波高:8.0m,想定津波到達時間:16分,
17,37.411319,137.240272,消防・防災,緊急一時避難場所,,,長寿園,,927-1221,珠洲市宝立町春日野４－１１７,,,,,,,標高:16.50m,想定津波高:8.0m,想定津波到達時間:16分,
18,37.414286,137.237531,消防・防災,緊急一時避難場所,,,大畠台地,,,珠洲市宝立町春日野,,,,,,,標高:28.80m,想定津波高:8.0m,想定津波到達時間:16分,
19,37.41317,137.243292,消防・防災,緊急一時避難場所,,,旧谷崎街道,,,珠洲市宝立町春日野,,,,,,,標高:19.50m,想定津波高:8.0m,想定津波到達時間:16分,
20,37.417341,137.234881,消防・防災,緊急一時避難場所,,,県道280号線（神道）,,,珠洲市上戸町南方,,,,,,,標高:18.10m,想定津波高:9.1m,想定津波到達時間:17分,
21,37.416719,137.242879,消防・防災,緊急一時避難場所,,,市道95号線（山田宅前）,,,珠洲市上戸町南方,,,,,,,標高:19.50m,想定津波高:9.1m,想定津波到達時間:17分,
22,37.418632,137.238175,消防・防災,緊急一時避難場所,,,隨念山,,,珠洲市上戸町南方,,,,,,,標高:19.20m,想定津波高:9.1m,想定津波到達時間:17分,
23,37.424567,137.242525,消防・防災,緊急一時避難場所,,,清水山①,,,珠洲市上戸町南方,,,,,,,標高:22.50m,想定津波高:9.8m,想定津波到達時間:17分,
24,37.421819,137.240959,消防・防災,緊急一時避難場所,,,清水山②,,,珠洲市上戸町南方,,,,,,,標高:19.20m,想定津波高:9.1m,想定津波到達時間:17分,
25,37.429589,137.245435,消防・防災,緊急一時避難場所,,,高照寺,,927-1216,珠洲市上戸町寺社１１－４１乙,,,,,,,標高:16.30m,想定津波高:9.8m,想定津波到達時間:20分,
26,37.427237,137.249932,消防・防災,緊急一時避難場所,,,上戸小学校（3階）,,927-1216,珠洲市上戸町寺社５－７４－２,,,,,,,標高:10.30m,想定津波高:9.8m,想定津波到達時間:20分,
27,37.431429,137.249064,消防・防災,緊急一時避難場所,,,さんぺい山,,,珠洲市上戸町北方,,,,,,,標高:15.00m,想定津波高:9.4m,想定津波到達時間:20分,
28,37.435093,137.252562,消防・防災,緊急一時避難場所,,,のとスターライン（上戸高台）,,,珠洲市上戸町北方,,,,,,,標高:15.50m,想定津波高:9.4m,想定津波到達時間:20分,
29,37.442138,137.252777,消防・防災,緊急一時避難場所,,,晴気台地,,,珠洲市上戸町北方,,,,,,,標高:61.20m,想定津波高:9.4m,想定津波到達時間:20分,
30,37.43637,137.260406,消防・防災,緊急一時避難場所,,,珠洲市役所（5階）,,927-1295,珠洲市上戸町北方１－６－２,,,,,,,標高:20.50m,想定津波高:9.4m,想定津波到達時間:20分,
31,37.439955,137.259781,消防・防災,緊急一時避難場所,,,飯田小学校,,927-1214 ,珠洲市飯田町１９部６１番地,,,,,,,標高:23.10m,想定津波高:9.3m,想定津波到達時間:18分,
32,37.437914,137.25997,消防・防災,緊急一時避難場所,,,春日神社,,,珠洲市飯田町１７－５０,,,,,,,標高:12.30m,想定津波高:9.3m,想定津波到達時間:18分,
33,37.435723,137.265965,消防・防災,緊急一時避難場所,,,消防署訓練塔（5階・屋上）,,,珠洲市飯田町,,,,,,,標高:14.10m,想定津波高:9.3m,想定津波到達時間:18分,
34,37.432901,137.260049,消防・防災,緊急一時避難場所,,,珠洲商工会議所（4階）,,,珠洲市飯田町,,,,,,,標高:13.80m,想定津波高:9.3m,想定津波到達時間:18分,
35,37.447082,137.255722,消防・防災,緊急一時避難場所,,,白山神社（出田）,,927-1233 ,珠洲市若山町出田３４－２４,,,,,,,標高:15.90m,,,
36,37.446783,137.262316,消防・防災,緊急一時避難場所,,,石川県珠洲第１職員住宅,,927-1233 ,珠洲市若山町出田を６２－１,,,,,,,標高:21.30m,,,
37,37.462453,137.255993,消防・防災,緊急一時避難場所,,,道祖（ふなと）神社,,,珠洲市若山町鈴内１６－１丙,,,,,,,標高:31.50m,,,
38,37.460197,137.256139,消防・防災,緊急一時避難場所,,,旧東若山小学校跡地,,,珠洲市若山町経念,,,,,,,標高:22.10m,,,
39,37.460024,137.265179,消防・防災,緊急一時避難場所,,,市道6号線（岩坂峠）,,,珠洲市若山町広栗,,,,,,,標高:24.00m,,,
40,37.453296,137.265555,消防・防災,緊急一時避難場所,,,広栗山①,,,珠洲市若山町広栗,,,,,,,標高:17.60m,,,
41,37.452146,137.26548,消防・防災,緊急一時避難場所,,,広栗山②,,,珠洲市若山町広栗,,,,,,,標高:10.70m,,,
42,37.450749,137.265244,消防・防災,緊急一時避難場所,,,広栗山③,,,珠洲市若山町広栗,,,,,,,標高:23.80m,,,
43,37.449272,137.264916,消防・防災,緊急一時避難場所,,,広栗山④,,,珠洲市若山町広栗,,,,,,,標高:13.90m,,,
44,37.447525,137.268902,消防・防災,緊急一時避難場所,,,飯田高等学校駐車場・グラウンド,,927-1213 ,珠洲市野々江町１－１,,,,,,,標高:21.90m,想定津波高:6.4m,想定津波到達時間:19分,
45,37.443492,137.270703,消防・防災,緊急一時避難場所,,,珠洲市総合病院（3階）,,927-1213 ,珠洲市野々江町ユ部１番地１,,,,,,,標高:13.70m,想定津波高:6.4m,想定津波到達時間:19分,
46,37.44656,137.272807,消防・防災,緊急一時避難場所,,,緑丘中学校,,927-1213,珠洲市野々江町６の部１番地,,,,,,,標高:13.30m,想定津波高:6.4m,想定津波到達時間:19分,
47,37.443949,137.281698,消防・防災,緊急一時避難場所,,,直小学校（3階）,,927-1213,珠洲市野々江町ニ部３８番地の２,,,,,,,標高:11.80m,想定津波高:6.4m,想定津波到達時間:19分,
48,37.452006,137.283606,消防・防災,緊急一時避難場所,,,上水道正院配水池,,,珠洲市熊谷町,,,,,,,標高:50.10m,想定津波高:5.5m,想定津波到達時間:18分,
49,37.448066,137.294474,消防・防災,緊急一時避難場所,,,観寿山,,,珠洲市正院町小路,,,,,,,標高:19.10m,想定津波高:5.8m,想定津波到達時間:19分,
50,37.44641,137.296287,消防・防災,緊急一時避難場所,,,殿山,,,珠洲市正院町川尻,,,,,,,標高:32.20m,想定津波高:7.9m,想定津波到達時間:16分,
51,37.444727,137.299222,消防・防災,緊急一時避難場所,,,黒瀧城跡地,,,珠洲市正院町川尻,,,,,,,標高:33.60m,想定津波高:7.9m,想定津波到達時間:16分,
52,37.450072,137.298616,消防・防災,緊急一時避難場所,,,のとスターラインA,,,珠洲市蛸島町,,,,,,,標高:18.90m,想定津波高:7.9m,想定津波到達時間:16分,
53,37.449259,137.304275,消防・防災,緊急一時避難場所,,,のとスターラインB,,,珠洲市蛸島町,,,,,,,標高:30.90m,想定津波高:9.4m,想定津波到達時間:15分,
54,37.448203,137.31024,消防・防災,緊急一時避難場所,,,のとスターラインC,,,珠洲市蛸島町,,,,,,,標高:30.30m,想定津波高:9.4m,想定津波到達時間:15分,
55,37.45011,137.319038,消防・防災,緊急一時避難場所,,,のとスターラインD,,,珠洲市蛸島町,,,,,,,標高:23.50m,想定津波高:9.4m,想定津波到達時間:15分,
56,37.449293,137.325475,消防・防災,緊急一時避難場所,,,のとスターラインE,,,珠洲市蛸島町,,,,,,,標高:22.70m,想定津波高:9.4m,想定津波到達時間:15分,
57,37.441686,137.308568,消防・防災,緊急一時避難場所,,,弁天近隣公園,,,珠洲市蛸島町,,,,,,,標高:19.70m,想定津波高:9.4m,想定津波到達時間:15分,
58,37.442814,137.313529,消防・防災,緊急一時避難場所,,,蛸島小学校（3階）,,927-1204 ,珠洲市蛸島町ワ部６９番地,,,,,,,標高:14.30m,想定津波高:9.4m,想定津波到達時間:15分,
59,37.443117,137.320851,消防・防災,緊急一時避難場所,,,市営野球場（観客席）,,,珠洲市蛸島町鉢ヶ崎,,,,,,,標高:12.00m,想定津波高:9.4m,想定津波到達時間:15分,
60,37.440199,137.326586,消防・防災,緊急一時避難場所,,,珠洲ビーチホテル（6階）,,927-1204,珠洲市蛸島町１－２－４８０ ,,,,,,,標高:27.70m,想定津波高:9.4m,想定津波到達時間:15分,
61,37.438483,137.31156,消防・防災,緊急一時避難場所,,,山王の森,,,珠洲市蛸島町,,,,,,,標高:20.00m,想定津波高:9.4m,想定津波到達時間:15分,
62,37.448731,137.334852,消防・防災,緊急一時避難場所,,,市道56号線（雲津上野付近）,,,珠洲市三崎町雲津,,,,,,,標高:21.00m,想定津波高:13.7m,想定津波到達時間:14分,
63,37.449634,137.342234,消防・防災,緊急一時避難場所,,,市道56号線（荒池付近）,,,珠洲市三崎町雲津,,,,,,,標高:23.30m,想定津波高:13.7m,想定津波到達時間:14分,
64,37.443803,137.345248,消防・防災,緊急一時避難場所,,,白山神社（雲津）,,,珠洲市三崎町雲津,,,,,,,標高:23.00m,想定津波高:13.7m,想定津波到達時間:14分,
65,37.448424,137.351675,消防・防災,緊急一時避難場所,,,市道587号線三叉路（小山田付近）,,,珠洲市三崎町小泊,,,,,,,標高:19.20m,想定津波高:18.6m,想定津波到達時間:14分,
66,37.450289,137.356482,消防・防災,緊急一時避難場所,,,県道28号線（端野氏資材置場付近）,,,珠洲市三崎町小泊,,,,,,,標高:19.50m,想定津波高:18.6m,想定津波到達時間:14分,
67,37.45244,137.353794,消防・防災,緊急一時避難場所,,,小泊共同墓地駐車場,,,珠洲市三崎町小泊,,,,,,,標高:21.80m,想定津波高:18.6m,想定津波到達時間:14分,
68,37.453526,137.351165,消防・防災,緊急一時避難場所,,,市道56号線（長池付近）,,,珠洲市三崎町小泊,,,,,,,標高:25.70m,想定津波高:18.6m,想定津波到達時間:14分,
69,37.458116,137.352823,消防・防災,緊急一時避難場所,,,旧伏見葉タバコ乾燥場前,,,珠洲市三崎町伏見,,,,,,,標高:22.00m,想定津波高:17.4m,想定津波到達時間:15分,
70,37.463175,137.349765,消防・防災,緊急一時避難場所,,,高波高台,,,珠洲市三崎町高波,,,,,,,標高:22.50m,想定津波高:16.5m,想定津波到達時間:16分,
71,37.465049,137.345581,消防・防災,緊急一時避難場所,,,松森神社,,,珠洲市三崎町引砂ル２６乙,,,,,,,標高:20.80m,想定津波高:14.9m,想定津波到達時間:17分,
72,37.468084,137.341271,消防・防災,緊急一時避難場所,,,みさきデイサービスセンター前,,,珠洲市三崎町宇治,,,,,,,標高:20.60m,想定津波高:12.4m,想定津波到達時間:16分,
73,37.473969,137.342425,消防・防災,緊急一時避難場所,,,三崎中学校（3階）,,927-1454,珠洲市三崎町宇治ヨ部１１４番地,,,,,,,標高:16.40m,想定津波高:12.4m,想定津波到達時間:16分,
74,37.479132,137.334949,消防・防災,緊急一時避難場所,,,森腰台地,,,珠洲市三崎町森腰,,,,,,,標高:25.00m,想定津波高:12.7m,想定津波到達時間:19分,
75,37.48353,137.326645,消防・防災,緊急一時避難場所,,,粟津井田地内,,,珠洲市三崎町粟津,,,,,,,標高:10.20m,想定津波高:11.8m,想定津波到達時間:17分,
76,37.486701,137.333028,消防・防災,緊急一時避難場所,,,林道粟津線,,,珠洲市三崎町粟津,,,,,,,標高:12.50m,想定津波高:11.8m,想定津波到達時間:17分,
77,37.484939,137.334605,消防・防災,緊急一時避難場所,,,粟津遠山,,,珠洲市三崎町粟津,,,,,,,標高:28.20m,想定津波高:11.8m,想定津波到達時間:17分,
78,37.486829,137.33761,消防・防災,緊急一時避難場所,,,粟津帆上,,,珠洲市三崎町粟津,,,,,,,標高:27.00m,想定津波高:11.8m,想定津波到達時間:17分,
79,37.489927,137.339948,消防・防災,緊急一時避難場所,,,大浜田尻上野,,,珠洲市三崎町寺家,,,,,,,標高:24.60m,想定津波高:14.9m,想定津波到達時間:14分,
80,37.492992,137.341472,消防・防災,緊急一時避難場所,,,げんべい坂（山岸宅裏山）,,,珠洲市三崎町寺家,,,,,,,標高:25.90m,想定津波高:14.9m,想定津波到達時間:14分,
81,37.495925,137.342319,消防・防災,緊急一時避難場所,,,川上本町集会所,,,珠洲市三崎町寺家,,,,,,,標高:19.60m,想定津波高:14.9m,想定津波到達時間:14分,
82,37.497987,137.347707,消防・防災,緊急一時避難場所,,,下出集会場,,,珠洲市三崎町寺家,,,,,,,標高:22.70m,想定津波高:14.9m,想定津波到達時間:14分,
83,37.497664,137.345532,消防・防災,緊急一時避難場所,,,須々神社,,927-1451,珠洲市三崎町寺家４－２,,,,,,,標高:21.00m,想定津波高:14.9m,想定津波到達時間:14分,
84,37.502052,137.348706,消防・防災,緊急一時避難場所,,,専称寺,,,珠洲市三崎町寺家,,,,,,,標高:22.20m,想定津波高:14.9m,想定津波到達時間:14分,
85,37.503666,137.349143,消防・防災,緊急一時避難場所,,,塩津上野集会所,,,珠洲市三崎町寺家,,,,,,,標高:25.00m,想定津波高:14.9m,想定津波到達時間:14分,
86,37.518619,137.32864,消防・防災,緊急一時避難場所,,,県道28号線（狼煙ポケットパーク）,,,珠洲市狼煙町,,,,,,,標高:28.80m,想定津波高:10.3m,想定津波到達時間:5分,
87,37.523418,137.325357,消防・防災,緊急一時避難場所,,,狼煙館裏山,,,珠洲市狼煙町,,,,,,,標高:30.50m,想定津波高:10.3m,想定津波到達時間:5分,
88,37.528787,137.32628,消防・防災,緊急一時避難場所,,,禄剛崎灯台台地,,,珠洲市狼煙町,,,,,,,標高:42.60m,想定津波高:10.3m,想定津波到達時間:5分,
89,37.526694,137.318802,消防・防災,緊急一時避難場所,,,狼煙運動公園,,,珠洲市狼煙町,,,,,,,標高:31.20m,想定津波高:10.3m,想定津波到達時間:5分,
90,37.526184,137.316629,消防・防災,緊急一時避難場所,,,狼煙林道,,,珠洲市狼煙町,,,,,,,標高:28.00m,想定津波高:10.3m,想定津波到達時間:5分,
91,37.526388,137.305284,消防・防災,緊急一時避難場所,,,市道246号線（長宗宅前）,,,珠洲市狼煙町横山,,,,,,,標高:60.60m,想定津波高:10.3m,想定津波到達時間:5分,
92,37.526679,137.30426,消防・防災,緊急一時避難場所,,,等覚寺,,927-1447,珠洲市川浦町１－３,,,,,,,標高:19.40m,想定津波高:7.1m,想定津波到達時間:5分,
93,37.524784,137.299554,消防・防災,緊急一時避難場所,,,県道28号線（川浦バス停）,,,珠洲市川浦町,,,,,,,標高:26.90m,想定津波高:7.1m,想定津波到達時間:5分,
94,37.525873,137.283633,消防・防災,緊急一時避難場所,,,旧日置小中学校,,,珠洲市折戸町,,,,,,,標高:28.00m,想定津波高:7.5m,想定津波到達時間:5分,
95,37.522678,137.278816,消防・防災,緊急一時避難場所,,,市道252号線（折戸）,,,珠洲市折戸町,,,,,,,標高:23.40m,想定津波高:7.5m,想定津波到達時間:5分,
96,37.52991,137.275071,消防・防災,緊急一時避難場所,,,県道28号線（木の浦隧道待避所）,,,珠洲市木の浦,,,,,,,標高:36.50m,想定津波高:7.5m,想定津波到達時間:5分,
97,37.52703,137.266418,消防・防災,緊急一時避難場所,,,旧国民宿舎きのうら荘駐車場,,,珠洲市木の浦,,,,,,,標高:33.60m,想定津波高:7.5m,想定津波到達時間:5分,
98,37.51804,137.240964,消防・防災,緊急一時避難場所,,,新保山出①,,,珠洲市高屋町,,,,,,,標高:34.30m,想定津波高:7.6m,想定津波到達時間:5分,
99,37.518432,137.24708,消防・防災,緊急一時避難場所,,,新保山出②,,,珠洲市高屋町,,,,,,,標高:70.90m,想定津波高:7.6m,想定津波到達時間:5分,
100,37.518657,137.237869,消防・防災,緊急一時避難場所,,,市道253-1号線（角内出）,,,珠洲市高屋町,,,,,,,標高:40.00m,想定津波高:7.6m,想定津波到達時間:5分,
101,37.517476,137.23553,消防・防災,緊急一時避難場所,,,円龍寺,,927-1301,珠洲市高屋町ワ－３３,,,,,,,標高:16.20m,想定津波高:7.6m,想定津波到達時間:5分,
102,37.515151,137.234543,消防・防災,緊急一時避難場所,,,市道268号線（高林宅裏）,,,珠洲市高屋町,,,,,,,標高:31.20m,想定津波高:7.6m,想定津波到達時間:5分,
103,37.511488,137.222124,消防・防災,緊急一時避難場所,,,新地谷地内①,,,珠洲市馬緤町,,,,,,,標高:32.80m,想定津波高:7.8m,想定津波到達時間:5分,
104,37.510347,137.221749,消防・防災,緊急一時避難場所,,,新地谷地内②,,,珠洲市馬緤町,,,,,,,標高:35.10m,想定津波高:7.8m,想定津波到達時間:5分,
105,37.507849,137.216915,消防・防災,緊急一時避難場所,,,市道38号線（中谷宅前）,,,珠洲市馬緤町,,,,,,,標高:17.10m,想定津波高:7.8m,想定津波到達時間:5分,
106,37.505157,137.212443,消防・防災,緊急一時避難場所,,,守禅寺,,927-1304 ,珠洲市馬緤町１６－１９８－２,,,,,,,標高:16.30m,想定津波高:7.8m,想定津波到達時間:5分,
107,37.503866,137.211283,消防・防災,緊急一時避難場所,,,市道272号線（忍久保宅前）,,,珠洲市馬緤町,,,,,,,標高:22.20m,想定津波高:7.8m,想定津波到達時間:5分,
108,37.504602,137.206696,消防・防災,緊急一時避難場所,,,馬緤児童公園,,,珠洲市馬緤町,,,,,,,標高:38.40m,想定津波高:7.8m,想定津波到達時間:5分,
109,37.506182,137.200911,消防・防災,緊急一時避難場所,,,本光寺,,927-1304 ,珠洲市馬緤町９－１４０,,,,,,,標高:33.10m,想定津波高:7.8m,想定津波到達時間:5分,
110,37.497776,137.183254,消防・防災,緊急一時避難場所,,,国道249号線（大谷峠登り口（大谷側）,,,珠洲市馬緤町赤神,,,,,,,標高:18.00m,想定津波高:7.8m,想定津波到達時間:5分,
111,37.499266,137.175261,消防・防災,緊急一時避難場所,,,高山,,,珠洲市大谷町,,,,,,,標高:17.10m,想定津波高:7.6m,想定津波到達時間:5分,
112,37.501186,137.171269,消防・防災,緊急一時避難場所,,,西部小学校,,927-1321,珠洲市大谷町２部４７番甲地,,,,,,,標高:44.10m,想定津波高:7.6m,想定津波到達時間:5分,
113,37.498632,137.172005,消防・防災,緊急一時避難場所,,,廣栄寺,,,珠洲市大谷町５－１３,,,,,,,標高:15.60m,想定津波高:7.6m,想定津波到達時間:5分,
114,37.501385,137.165283,消防・防災,緊急一時避難場所,,,市道284号線（末光山）,,,珠洲市大谷町,,,,,,,標高:32.40m,想定津波高:7.6m,想定津波到達時間:5分,
115,37.497643,137.154774,消防・防災,緊急一時避難場所,,,曹源寺,,927-1322,珠洲市長橋町２５－１７,,,,,,,標高:35.20m,想定津波高:9.1m,想定津波到達時間:5分,
116,37.495929,137.142393,消防・防災,緊急一時避難場所,,,市道244号線（抜鉾神社裏道）,,,珠洲市赤島,,,,,,,標高:26.70m,想定津波高:8.7m,想定津波到達時間:5分,
117,37.49209,137.130465,消防・防災,緊急一時避難場所,,,海蔵寺,,927-1323 ,珠洲市片岩町ラ６４,,,,,,,標高:26.90m,想定津波高:8.7m,想定津波到達時間:5分,
118,37.488225,137.119962,消防・防災,緊急一時避難場所,,,白山神社（清水）,,927-1324 ,珠洲市清水町２－９,,,,,,,標高:39.50m,想定津波高:8.2m,想定津波到達時間:5分,
119,37.485279,137.11622,消防・防災,緊急一時避難場所,,,農道大谷525号線,,,珠洲市清水町,,,,,,,標高:37.90m,想定津波高:8.2m,想定津波到達時間:5分,
120,37.481908,137.109236,消防・防災,緊急一時避難場所,,,林道仁江線,,,珠洲市仁江町,,,,,,,標高:27.20m,想定津波高:7.7m,想定津波到達時間:5分,
121,37.472758,137.095077,消防・防災,緊急一時避難場所,,,白山神社（真浦）,,,珠洲市真浦町,,,,,,,標高:30.20m,想定津波高:9.5m,想定津波到達時間:5分,
122,37.403511,137.239809,消防・防災,緊急一時避難場所,,,第三長寿園（屋上）,,927-1222,珠洲市宝立町鵜飼子３６－４,,,,,,,標高:16.00m,想定津波高:7.8m,想定津波到達時間:16分,
